[
    {
        "name": "Afghanistan",
        "lat": 33.9391,
        "lng": 67.71
    },
    {
        "name": "Albania",
        "lat": 41.1533,
        "lng": 20.1683
    },
    {
        "name": "Algeria",
        "lat": 28.0339,
        "lng": 1.6596
    },
    {
        "name": "Andorra",
        "lat": 42.5063,
        "lng": 1.5218
    },
    {
        "name": "Angola",
        "lat": -11.2027,
        "lng": 17.8739
    },
    {
        "name": "Antigua and Barbuda",
        "lat": 17.0608,
        "lng": -61.7964
    },
    {
        "name": "Argentina",
        "lat": -38.4161,
        "lng": -63.6167
    },
    {
        "name": "Armenia",
        "lat": 40.0691,
        "lng": 45.0382
    },
    {
        "name": "Australia",
        "lat": -25.2744,
        "lng": 133.7751
    },
    {
        "name": "Austria",
        "lat": 47.5162,
        "lng": 14.5501
    },
    {
        "name": "Azerbaijan",
        "lat": 40.1431,
        "lng": 47.5769
    },
    {
        "name": "Bahamas",
        "lat": 25.0343,
        "lng": -77.3963
    },
    {
        "name": "Bahrain",
        "lat": 26.0667,
        "lng": 50.5577
    },
    {
        "name": "Bangladesh",
        "lat": 23.685,
        "lng": 90.3563
    },
    {
        "name": "Barbados",
        "lat": 13.1939,
        "lng": -59.5432
    },
    {
        "name": "Belarus",
        "lat": 53.7098,
        "lng": 27.9534
    },
    {
        "name": "Belgium",
        "lat": 50.5039,
        "lng": 4.4699
    },
    {
        "name": "Belize",
        "lat": 17.1899,
        "lng": -88.4976
    },
    {
        "name": "Benin",
        "lat": 9.3077,
        "lng": 2.3158
    },
    {
        "name": "Bhutan",
        "lat": 27.5142,
        "lng": 90.4336
    },
    {
        "name": "Bolivia",
        "lat": -16.2902,
        "lng": -63.5887
    },
    {
        "name": "Bosnia and Herzegovina",
        "lat": 43.9159,
        "lng": 17.6791
    },
    {
        "name": "Botswana",
        "lat": -22.3285,
        "lng": 24.6849
    },
    {
        "name": "Brazil",
        "lat": -14.235,
        "lng": -51.9253
    },
    {
        "name": "Brunei",
        "lat": 4.5353,
        "lng": 114.7277
    },
    {
        "name": "Bulgaria",
        "lat": 42.7339,
        "lng": 25.4858
    },
    {
        "name": "Burkina Faso",
        "lat": 12.2383,
        "lng": -1.5616
    },
    {
        "name": "Burundi",
        "lat": -3.3731,
        "lng": 29.9189
    },
    {
        "name": "Cambodia",
        "lat": 12.5657,
        "lng": 104.991
    },
    {
        "name": "Cameroon",
        "lat": 7.3697,
        "lng": 12.3547
    },
    {
        "name": "Canada",
        "lat": 56.1304,
        "lng": -106.3468
    },
    {
        "name": "Cape Verde",
        "lat": 16.5388,
        "lng": -23.0418
    },
    {
        "name": "Central African Republic",
        "lat": 6.6111,
        "lng": 20.9394
    },
    {
        "name": "Chad",
        "lat": 15.4542,
        "lng": 18.7322
    },
    {
        "name": "Chile",
        "lat": -35.6751,
        "lng": -71.543
    },
    {
        "name": "China",
        "lat": 35.8617,
        "lng": 104.1954
    },
    {
        "name": "Colombia",
        "lat": 4.5709,
        "lng": -74.2973
    },
    {
        "name": "Comoros",
        "lat": -11.6455,
        "lng": 43.3333
    },
    {
        "name": "Congo",
        "lat": -0.228,
        "lng": 15.8277
    },
    {
        "name": "Costa Rica",
        "lat": 9.7489,
        "lng": -83.7534
    },
    {
        "name": "Croatia",
        "lat": 45.1,
        "lng": 15.2
    },
    {
        "name": "Cuba",
        "lat": 21.5218,
        "lng": -77.7812
    },
    {
        "name": "Cyprus",
        "lat": 35.1264,
        "lng": 33.4299
    },
    {
        "name": "Czech Republic",
        "lat": 49.8175,
        "lng": 15.473
    },
    {
        "name": "Denmark",
        "lat": 56.2639,
        "lng": 9.5018
    },
    {
        "name": "Djibouti",
        "lat": 11.8251,
        "lng": 42.5903
    },
    {
        "name": "Dominica",
        "lat": 15.415,
        "lng": -61.371
    },
    {
        "name": "Dominican Republic",
        "lat": 18.7357,
        "lng": -70.1627
    },
    {
        "name": "Ecuador",
        "lat": -1.8312,
        "lng": -78.1834
    },
    {
        "name": "Egypt",
        "lat": 26.8206,
        "lng": 30.8025
    },
    {
        "name": "El Salvador",
        "lat": 13.7942,
        "lng": -88.8965
    },
    {
        "name": "Equatorial Guinea",
        "lat": 1.6508,
        "lng": 10.2679
    },
    {
        "name": "Eritrea",
        "lat": 15.1794,
        "lng": 39.7823
    },
    {
        "name": "Estonia",
        "lat": 58.5953,
        "lng": 25.0136
    },
    {
        "name": "Eswatini",
        "lat": -26.5225,
        "lng": 31.4659
    },
    {
        "name": "Ethiopia",
        "lat": 9.145,
        "lng": 40.4897
    },
    {
        "name": "Fiji",
        "lat": -17.7134,
        "lng": 178.065
    },
    {
        "name": "Finland",
        "lat": 61.9241,
        "lng": 25.7482
    },
    {
        "name": "France",
        "lat": 46.2276,
        "lng": 2.2137
    },
    {
        "name": "Gabon",
        "lat": -0.8037,
        "lng": 11.6094
    },
    {
        "name": "Gambia",
        "lat": 13.4432,
        "lng": -15.3101
    },
    {
        "name": "Georgia",
        "lat": 42.3154,
        "lng": 43.3569
    },
    {
        "name": "Germany",
        "lat": 51.1657,
        "lng": 10.4515
    },
    {
        "name": "Ghana",
        "lat": 7.9465,
        "lng": -1.0232
    },
    {
        "name": "Greece",
        "lat": 39.0742,
        "lng": 21.8243
    },
    {
        "name": "Grenada",
        "lat": 12.1165,
        "lng": -61.679
    },
    {
        "name": "Guatemala",
        "lat": 15.7835,
        "lng": -90.2308
    },
    {
        "name": "Guinea",
        "lat": 9.9456,
        "lng": -9.6966
    },
    {
        "name": "Guinea-Bissau",
        "lat": 11.8037,
        "lng": -15.1804
    },
    {
        "name": "Guyana",
        "lat": 4.8604,
        "lng": -58.9302
    },
    {
        "name": "Haiti",
        "lat": 18.9712,
        "lng": -72.2852
    },
    {
        "name": "Honduras",
        "lat": 15.2,
        "lng": -86.2419
    },
    {
        "name": "Hungary",
        "lat": 47.1625,
        "lng": 19.5033
    },
    {
        "name": "Iceland",
        "lat": 64.9631,
        "lng": -19.0208
    },
    {
        "name": "India",
        "lat": 20.5937,
        "lng": 78.9629
    },
    {
        "name": "Indonesia",
        "lat": -0.7893,
        "lng": 113.9213
    },
    {
        "name": "Iran",
        "lat": 32.4279,
        "lng": 53.688
    },
    {
        "name": "Iraq",
        "lat": 33.2232,
        "lng": 43.6793
    },
    {
        "name": "Ireland",
        "lat": 53.4129,
        "lng": -8.2439
    },
    {
        "name": "Israel",
        "lat": 31.0461,
        "lng": 34.8516
    },
    {
        "name": "Italy",
        "lat": 41.8719,
        "lng": 12.5674
    },
    {
        "name": "Jamaica",
        "lat": 18.1096,
        "lng": -77.2975
    },
    {
        "name": "Japan",
        "lat": 36.2048,
        "lng": 138.2529
    },
    {
        "name": "Jordan",
        "lat": 30.5852,
        "lng": 36.2384
    },
    {
        "name": "Kazakhstan",
        "lat": 48.0196,
        "lng": 66.9237
    },
    {
        "name": "Kenya",
        "lat": -0.0236,
        "lng": 37.9062
    },
    {
        "name": "Kiribati",
        "lat": -3.3704,
        "lng": -168.734
    },
    {
        "name": "Kuwait",
        "lat": 29.3117,
        "lng": 47.4818
    },
    {
        "name": "Kyrgyzstan",
        "lat": 41.2044,
        "lng": 74.7661
    },
    {
        "name": "Laos",
        "lat": 19.8563,
        "lng": 102.4955
    },
    {
        "name": "Latvia",
        "lat": 56.8796,
        "lng": 24.6032
    },
    {
        "name": "Lebanon",
        "lat": 33.8547,
        "lng": 35.8623
    },
    {
        "name": "Lesotho",
        "lat": -29.61,
        "lng": 28.2336
    },
    {
        "name": "Liberia",
        "lat": 6.4281,
        "lng": -9.4295
    },
    {
        "name": "Libya",
        "lat": 26.3351,
        "lng": 17.2283
    },
    {
        "name": "Liechtenstein",
        "lat": 47.166,
        "lng": 9.5554
    },
    {
        "name": "Lithuania",
        "lat": 55.1694,
        "lng": 23.8813
    }
]